{
"type": "FeatureCollection",
"name": "Souk",
"crs": { "type": "name", "properties": { "name": "urn:ogc:def:crs:OGC:1.3:CRS84" } },
"features": [
{ "type": "Feature", "id": 1, "properties": { "Nom": "Souk Akka Ighane", "Nmb": 1, "NOM_COMMUN": "AKKA IGHANE", "CERCLE": "FOUM ZGUID", "PROVINCE": "TATA", "REGION": "GUELMIM - ES-SEMARA", "CMV": "Foum Zguid" }, "geometry": { "type": "Point", "coordinates": [ -7.532930550122732, 29.991346103321046 ] } },
{ "type": "Feature", "id": 2, "properties": { "Nom": "Souk Allougoum", "Nmb": 1, "NOM_COMMUN": "ALLOUGOUM", "CERCLE": "FOUM ZGUID", "PROVINCE": "TATA", "REGION": "GUELMIM - ES-SEMARA", "CMV": "Foum Zguid" }, "geometry": { "type": "Point", "coordinates": [ -6.831344174761387, 30.275722422743762 ] } },
{ "type": "Feature", "id": 3, "properties": { "Nom": "Souk Timdline", "Nmb": 1, "NOM_COMMUN": "AIT ZINEB", "CERCLE": "AMERZGANE", "PROVINCE": "OUARZAZATE", "REGION": "SOUSS - MASSA - DRAA", "CMV": "Ouarzazate" }, "geometry": { "type": "Point", "coordinates": [ -7.134595312577309, 30.989219482618406 ] } },
{ "type": "Feature", "id": 4, "properties": { "Nom": "Souk Tnine", "Nmb": 1, "NOM_COMMUN": "SKOURA AHL EL OUST", "CERCLE": "OUARZAZATE", "PROVINCE": "OUARZAZATE", "REGION": "SOUSS - MASSA - DRAA", "CMV": "Skoura" }, "geometry": { "type": "Point", "coordinates": [ -6.552513916672808, 31.058061178486202 ] } },
{ "type": "Feature", "id": 5, "properties": { "Nom": "Souk Alnif", "Nmb": 1, "NOM_COMMUN": "ALNIF", "CERCLE": "TINGHIR", "PROVINCE": "TINGHIR", "REGION": "SOUSS - MASSA - DRAA", "CMV": "Alnif" }, "geometry": { "type": "Point", "coordinates": [ -5.165491801199985, 31.116780631492453 ] } },
{ "type": "Feature", "id": 6, "properties": { "Nom": "Souk  El Had", "Nmb": 1, "NOM_COMMUN": "TIDLI", "CERCLE": "AMERZGANE", "PROVINCE": "OUARZAZATE", "REGION": "SOUSS - MASSA - DRAA", "CMV": "Ighrem n'Ougdal" }, "geometry": { "type": "Point", "coordinates": [ -7.607462686553444, 31.099085319003212 ] } },
{ "type": "Feature", "id": 7, "properties": { "Nom": "Souk Ikniouen", "Nmb": 1, "NOM_COMMUN": "IKNIOUEN", "CERCLE": "BOUMALNE DADES", "PROVINCE": "TINGHIR", "REGION": "SOUSS - MASSA - DRAA", "CMV": "Ikniouen" }, "geometry": { "type": "Point", "coordinates": [ -5.684471136227977, 31.169898537372148 ] } },
{ "type": "Feature", "id": 8, "properties": { "Nom": "Souk  Es Sebt", "Nmb": 1, "NOM_COMMUN": "GHASSATE", "CERCLE": "OUARZAZATE", "PROVINCE": "OUARZAZATE", "REGION": "SOUSS - MASSA - DRAA", "CMV": "Ouarzazate" }, "geometry": { "type": "Point", "coordinates": [ -6.805736351837951, 31.174207073665777 ] } },
{ "type": "Feature", "id": 9, "properties": { "Nom": "Souk Lekhmis", "Nmb": 1, "NOM_COMMUN": "TOUNDOUTE", "CERCLE": "OUARZAZATE", "PROVINCE": "OUARZAZATE", "REGION": "SOUSS - MASSA - DRAA", "CMV": "Toundout" }, "geometry": { "type": "Point", "coordinates": [ -6.586129646839473, 31.273224901797644 ] } },
{ "type": "Feature", "id": 10, "properties": { "Nom": "Souk Boumalne dades", "Nmb": 1, "NOM_COMMUN": "BOUMALNE DADES", "CERCLE": null, "PROVINCE": "TINGHIR", "REGION": "SOUSS - MASSA - DRAA", "CMV": "Boumalne" }, "geometry": { "type": "Point", "coordinates": [ -5.986710596660627, 31.380099525753021 ] } },
{ "type": "Feature", "id": 11, "properties": { "Nom": "Souk El Arba", "Nmb": 1, "NOM_COMMUN": "IGHIL N'OUMGOUN", "CERCLE": "BOUMALNE DADES", "PROVINCE": "TINGHIR", "REGION": "SOUSS - MASSA - DRAA", "CMV": "Qalaat Mgouna" }, "geometry": { "type": "Point", "coordinates": [ -6.219138461630768, 31.410956964233218 ] } },
{ "type": "Feature", "id": 12, "properties": { "Nom": "Souk Ouaklim", "Nmb": 1, "NOM_COMMUN": "OUAKLIM", "CERCLE": "TINGHIR", "PROVINCE": "TINGHIR", "REGION": "SOUSS - MASSA - DRAA", "CMV": "Tinghir" }, "geometry": { "type": "Point", "coordinates": [ -5.548179943634665, 31.445250862201739 ] } },
{ "type": "Feature", "id": 13, "properties": { "Nom": "Souk Msemrir", "Nmb": 1, "NOM_COMMUN": "MSEMRIR", "CERCLE": "BOUMALNE DADES", "PROVINCE": "TINGHIR", "REGION": "SOUSS - MASSA - DRAA", "CMV": "Msemrir" }, "geometry": { "type": "Point", "coordinates": [ -5.811174446569251, 31.696522738365733 ] } },
{ "type": "Feature", "id": 14, "properties": { "Nom": "Souk Assoul", "Nmb": 1, "NOM_COMMUN": "ASSOUL", "CERCLE": "ASSOUL", "PROVINCE": "TINGHIR", "REGION": "SOUSS - MASSA - DRAA", "CMV": "Assoul" }, "geometry": { "type": "Point", "coordinates": [ -5.208522966574816, 31.948520058590777 ] } },
{ "type": "Feature", "id": 15, "properties": { "Nom": "Souk Tlet", "Nmb": 1, "NOM_COMMUN": "AZNAGUEN", "CERCLE": "AMERZGANE", "PROVINCE": "OUARZAZATE", "REGION": "SOUSS - MASSA - DRAA", "CMV": "Taznakht" }, "geometry": { "type": "Point", "coordinates": [ -7.274345993306536, 30.36867055270395 ] } }
]
}
